{"type":"FeatureCollection","features":[{"type":"Feature","properties":{"ID":1,"NAME":"Alaska","COUNT":95.8},"geometry":{"type":"Point","coordinates":[-153.369141,66.160507]}},{"type":"Feature","properties":{"ID":2,"NAME":"Nevada","COUNT":87.8},"geometry":{"type":"Point","coordinates":[-117.224121,39.876]}},{"type":"Feature","properties":{"ID":3,"NAME":"Utah","COUNT":75.2},"geometry":{"type":"Point","coordinates":[-111.951,39.419]}},{"type":"Feature","properties":{"ID":4,"NAME":"Idaho","COUNT":70.4},"geometry":{"type":"Point","coordinates":[-114.742,44.068]}},{"type":"Feature","properties":{"ID":5,"NAME":"Oregon","COUNT":60.4},"geometry":{"type":"Point","coordinates":[-120.5,44]}},{"type":"Feature","properties":{"ID":6,"NAME":"Arizona","COUNT":56.8},"geometry":{"type":"Point","coordinates":[-111.094,34.049]}},{"type":"Feature","properties":{"ID":7,"NAME":"Wyoming","COUNT":55.9},"geometry":{"type":"Point","coordinates":[-107.29,43.076]}},{"type":"Feature","properties":{"ID":8,"NAME":"California","COUNT":52.1},"geometry":{"type":"Point","coordinates":[-119.418,36.778]}},{"type":"Feature","properties":{"ID":9,"NAME":"New Mexico","COUNT":47.4},"geometry":{"type":"Point","coordinates":[-106.018,34.307]}},{"type":"Feature","properties":{"ID":10,"NAME":"Colorado","COUNT":43.3},"geometry":{"type":"Point","coordinates":[-105.359,39.113]}},{"type":"Feature","properties":{"ID":11,"NAME":"Washington","COUNT":41.9},"geometry":{"type":"Point","coordinates":[-120.74,47.751]}},{"type":"Feature","properties":{"ID":12,"NAME":"Montana","COUNT":37.5},"geometry":{"type":"Point","coordinates":[-109.534,46.965]}},{"type":"Feature","properties":{"ID":13,"NAME":"New York","COUNT":37.1},"geometry":{"type":"Point","coordinates":[-75,43]}},{"type":"Feature","properties":{"ID":14,"NAME":"Florida","COUNT":29.2},"geometry":{"type":"Point","coordinates":[-81.76,27.994]}},{"type":"Feature","properties":{"ID":15,"NAME":"Michigan","COUNT":28.1},"geometry":{"type":"Point","coordinates":[-84.507,44.182]}},{"type":"Feature","properties":{"ID":16,"NAME":"Minnesota","COUNT":23.5},"geometry":{"type":"Point","coordinates":[-94.921,46.392]}},{"type":"Feature","properties":{"ID":17,"NAME":"Hawaii","COUNT":19},"geometry":{"type":"Point","coordinates":[-155.844,19.742]}},{"type":"Feature","properties":{"ID":18,"NAME":"New Jersey","COUNT":18.3},"geometry":{"type":"Point","coordinates":[-74.872,39.834]}},{"type":"Feature","properties":{"ID":19,"NAME":"New Hampshire","COUNT":18},"geometry":{"type":"Point","coordinates":[-71.5,44]}},{"type":"Feature","properties":{"ID":20,"NAME":"Wisconsin","COUNT":17.8},"geometry":{"type":"Point","coordinates":[-89.5,44.5]}},{"type":"Feature","properties":{"ID":21,"NAME":"Arkansas","COUNT":17.3},"geometry":{"type":"Point","coordinates":[-92.199,34.799]}},{"type":"Feature","properties":{"ID":22,"NAME":"Virginia","COUNT":17.1},"geometry":{"type":"Point","coordinates":[-78.025,37.927]}},{"type":"Feature","properties":{"ID":23,"NAME":"West Virginia","COUNT":16.5},"geometry":{"type":"Point","coordinates":[-80.5,39]}},{"type":"Feature","properties":{"ID":24,"NAME":"Pennsylvania","COUNT":16.1},"geometry":{"type":"Point","coordinates":[-77.195,41.203]}},{"type":"Feature","properties":{"ID":25,"NAME":"Vermont","COUNT":15.8},"geometry":{"type":"Point","coordinates":[-72.699,44]}},{"type":"Feature","properties":{"ID":26,"NAME":"North Carolina ","COUNT":14.6},"geometry":{"type":"Point","coordinates":[-80.793,35.782]}},{"type":"Feature","properties":{"ID":27,"NAME":"Tennessee","COUNT":14.1},"geometry":{"type":"Point","coordinates":[-86.66,35.86]}},{"type":"Feature","properties":{"ID":28,"NAME":"Kentucky","COUNT":11.8},"geometry":{"type":"Point","coordinates":[-84.27,37.839]}},{"type":"Feature","properties":{"ID":29,"NAME":"South Carolina","COUNT":11.8},"geometry":{"type":"Point","coordinates":[-81.1637,33.836]}},{"type":"Feature","properties":{"ID":30,"NAME":"Missouri","COUNT":11.2},"geometry":{"type":"Point","coordinates":[-92.6038,38.5739]}},{"type":"Feature","properties":{"ID":31,"NAME":"Mississippi","COUNT":10.9},"geometry":{"type":"Point","coordinates":[-90,33]}},{"type":"Feature","properties":{"ID":32,"NAME":"Louisiana","COUNT":10.7},"geometry":{"type":"Point","coordinates":[-92.329,30.3918]}},{"type":"Feature","properties":{"ID":33,"NAME":"Georgia","COUNT":9.7},"geometry":{"type":"Point","coordinates":[-83.44116,33.247875]}},{"type":"Feature","properties":{"ID":34,"NAME":"North Dakota","COUNT":9.1},"geometry":{"type":"Point","coordinates":[-100.437012,47.650589]}},{"type":"Feature","properties":{"ID":35,"NAME":"South Dakota","COUNT":8.9},"geometry":{"type":"Point","coordinates":[-100,44.5]}},{"type":"Feature","properties":{"ID":36,"NAME":"Maryland","COUNT":7.6},"geometry":{"type":"Point","coordinates":[-76.641,39.045753]}},{"type":"Feature","properties":{"ID":37,"NAME":"Delaware","COUNT":7.4},"geometry":{"type":"Point","coordinates":[-75.5,39]}},{"type":"Feature","properties":{"ID":38,"NAME":"Alabama","COUNT":7.1},"geometry":{"type":"Point","coordinates":[-86.902,32.318]}},{"type":"Feature","properties":{"ID":39,"NAME":"Massachussetts","COUNT":6.3},"geometry":{"type":"Point","coordinates":[-71.382,42.407]}},{"type":"Feature","properties":{"ID":40,"NAME":"Connecticut","COUNT":6.2},"geometry":{"type":"Point","coordinates":[-72.699997,41.599998]}},{"type":"Feature","properties":{"ID":41,"NAME":"Maine","COUNT":5.7},"geometry":{"type":"Point","coordinates":[-68.972168,45.367584]}},{"type":"Feature","properties":{"ID":42,"NAME":"Oklahoma","COUNT":4.6},"geometry":{"type":"Point","coordinates":[-96.921387,36.084621]}},{"type":"Feature","properties":{"ID":43,"NAME":"Indiana","COUNT":4.4},"geometry":{"type":"Point","coordinates":[-86.126976,40.273502]}},{"type":"Feature","properties":{"ID":44,"NAME":"Ohio","COUNT":4.2},"geometry":{"type":"Point","coordinates":[-82.996216,40.367474]}},{"type":"Feature","properties":{"ID":45,"NAME":"Texas","COUNT":4.2},"geometry":{"type":"Point","coordinates":[-100,31]}},{"type":"Feature","properties":{"ID":46,"NAME":"Illinois","COUNT":4.1},"geometry":{"type":"Point","coordinates":[-89,40]}},{"type":"Feature","properties":{"ID":47,"NAME":"Iowa","COUNT":2.8},"geometry":{"type":"Point","coordinates":[-93.581543,42.032974]}},{"type":"Feature","properties":{"ID":48,"NAME":"Nebraska","COUNT":2.8},"geometry":{"type":"Point","coordinates":[-100,41.5]}},{"type":"Feature","properties":{"ID":49,"NAME":"Kansas","COUNT":1.9},"geometry":{"type":"Point","coordinates":[-98,38.5]}},{"type":"Feature","properties":{"ID":50,"NAME":"Rhode Island","COUNT":1.5},"geometry":{"type":"Point","coordinates":[-71.742332,41.742325]}}]}